[
  { "name": "New York", "state_code": "NY", "lat": "40.7128", "lng": "-74.0060" },
  { "name": "Los Angeles", "state_code": "CA", "lat": "34.0522", "lng": "-118.2437" },
  { "name": "Chicago", "state_code": "IL", "lat": "41.8781", "lng": "-87.6298" },
  { "name": "London", "state_code": "UK", "lat": "51.5074", "lng": "-0.1278" },
  { "name": "Paris", "state_code": "FR", "lat": "48.8566", "lng": "2.3522" },
  { "name": "Tokyo", "state_code": "JP", "lat": "35.6895", "lng": "139.6917" },
  { "name": "Sydney", "state_code": "AU", "lat": "-33.8688", "lng": "151.2093" },
  { "name": "Rio de Janeiro", "state_code": "BR", "lat": "-22.9068", "lng": "-43.1729" },
  { "name": "Moscow", "state_code": "RU", "lat": "55.7558", "lng": "37.6173" },
  { "name": "Cairo", "state_code": "EG", "lat": "30.0444", "lng": "31.2357" },
  { "name": "Mumbai", "state_code": "IN", "lat": "19.0760", "lng": "72.8777" },
  { "name": "Beijing", "state_code": "CN", "lat": "39.9042", "lng": "116.4074" },
  { "name": "Mexico City", "state_code": "MX", "lat": "19.4326", "lng": "-99.1332" },
  { "name": "Cape Town", "state_code": "ZA", "lat": "-33.9249", "lng": "18.4241" },
  { "name": "Toronto", "state_code": "CA", "lat": "43.6532", "lng": "-79.3832" },
  { "name": "Dubai", "state_code": "AE", "lat": "25.2048", "lng": "55.2708" },
  { "name": "Hong Kong", "state_code": "CN", "lat": "22.3193", "lng": "114.1694" },
  { "name": "Singapore", "state_code": "SG", "lat": "1.3521", "lng": "103.8198" },
  { "name": "Auckland", "state_code": "NZ", "lat": "-36.8485", "lng": "174.7633" },
  { "name": "Sacramento", "state_code": "CA", "lat": "38.5816", "lng": "-121.4944" },
  { "name": "Modesto", "state_code": "CA", "lat": "37.6388", "lng": "-120.9947" },
  { "name": "San Diego", "state_code": "CA", "lat": "32.7157", "lng": "-117.1611" },
  { "name": "Wichita Falls", "state_code": "TX", "lat": "33.9137", "lng": "-98.4934" },
  { "name": "Houston", "state_code": "TX", "lat": "29.7604", "lng": "-95.3698" },
  { "name": "Dallas", "state_code": "TX", "lat": "32.7767", "lng": "-96.7970" },
  { "name": "San Antonio", "state_code": "TX", "lat": "29.4241", "lng": "-98.4936" },
  { "name": "Austin", "state_code": "TX", "lat": "30.2672", "lng": "-97.7431" },
  { "name": "El Paso", "state_code": "TX", "lat": "31.7619", "lng": "-106.4850" },
  { "name": "Fort Worth", "state_code": "TX", "lat": "32.7555", "lng": "-97.3308" },
  { "name": "San Jose", "state_code": "CA", "lat": "37.3382", "lng": "-121.8863" },
  { "name": "San Francisco", "state_code": "CA", "lat": "37.7749", "lng": "-122.4194" },
  { "name": "Fresno", "state_code": "CA", "lat": "36.7378", "lng": "-119.7871" },
  { "name": "Long Beach", "state_code": "CA", "lat": "33.7701", "lng": "-118.1937" },
  { "name": "Oakland", "state_code": "CA", "lat": "37.8044", "lng": "-122.2712" },
  { "name": "Phoenix", "state_code": "AZ", "lat": "33.4484", "lng": "-112.0740" },
  { "name": "Tucson", "state_code": "AZ", "lat": "32.2226", "lng": "-110.9747" },
  { "name": "Mesa", "state_code": "AZ", "lat": "33.4152", "lng": "-111.8315" },
  { "name": "Chandler", "state_code": "AZ", "lat": "33.3062", "lng": "-111.8413" },
  { "name": "Gilbert", "state_code": "AZ", "lat": "33.3528", "lng": "-111.7890" },
  { "name": "Denver", "state_code": "CO", "lat": "39.7392", "lng": "-104.9903" },
  { "name": "Colorado Springs", "state_code": "CO", "lat": "38.8339", "lng": "-104.8214" },
  { "name": "Aurora", "state_code": "CO", "lat": "39.7294", "lng": "-104.8319" },
  { "name": "Fort Collins", "state_code": "CO", "lat": "40.5853", "lng": "-105.0844" },
  { "name": "Lakewood", "state_code": "CO", "lat": "39.7047", "lng": "-105.0814" },
  { "name": "Seattle", "state_code": "WA", "lat": "47.6062", "lng": "-122.3321" },
  { "name": "Spokane", "state_code": "WA", "lat": "47.6588", "lng": "-117.4260" },
  { "name": "Tacoma", "state_code": "WA", "lat": "47.2529", "lng": "-122.4443" },
  { "name": "Vancouver", "state_code": "WA", "lat": "45.6266", "lng": "-122.5999" },
  { "name": "Bellevue", "state_code": "WA", "lat": "47.6101", "lng": "-122.2015" },
  { "name": "Portland", "state_code": "OR", "lat": "45.5155", "lng": "-122.6789" },
  { "name": "Eugene", "state_code": "OR", "lat": "44.0521", "lng": "-123.0868" },
  { "name": "Salem", "state_code": "OR", "lat": "44.9429", "lng": "-123.0351" },
  { "name": "Bend", "state_code": "OR", "lat": "44.0582", "lng": "-121.3153" },
  { "name": "Springfield", "state_code": "OR", "lat": "44.0462", "lng": "-123.0230" },
  { "name": "Miami", "state_code": "FL", "lat": "25.7617", "lng": "-80.1918" },
  { "name": "Orlando", "state_code": "FL", "lat": "28.5383", "lng": "-81.3792" },
  { "name": "Tampa", "state_code": "FL", "lat": "27.9506", "lng": "-82.4572" },
  { "name": "Jacksonville", "state_code": "FL", "lat": "30.3322", "lng": "-81.6557" },
  { "name": "St. Petersburg", "state_code": "FL", "lat": "27.7676", "lng": "-82.6402" },
  { "name": "Atlanta", "state_code": "GA", "lat": "33.7490", "lng": "-84.3880" },
  { "name": "Augusta", "state_code": "GA", "lat": "33.4735", "lng": "-82.0105" },
  { "name": "Columbus", "state_code": "GA", "lat": "32.4609", "lng": "-84.9877" },
  { "name": "Savannah", "state_code": "GA", "lat": "32.0809", "lng": "-81.0912" },
  { "name": "Athens", "state_code": "GA", "lat": "33.9520", "lng": "-83.3976" },
  { "name": "Boston", "state_code": "MA", "lat": "42.3601", "lng": "-71.0589" },
  { "name": "Worcester", "state_code": "MA", "lat": "42.2626", "lng": "-71.8023" },
  { "name": "Springfield", "state_code": "MA", "lat": "42.1009", "lng": "-72.5875" },
  { "name": "Cambridge", "state_code": "MA", "lat": "42.3770", "lng": "-71.1167" },
  { "name": "Lowell", "state_code": "MA", "lat": "42.6334", "lng": "-71.3162" },
  { "name": "Philadelphia", "state_code": "PA", "lat": "39.9526", "lng": "-75.1652" },
  { "name": "Pittsburgh", "state_code": "PA", "lat": "40.4406", "lng": "-79.9959" },
  { "name": "Allentown", "state_code": "PA", "lat": "40.6084", "lng": "-75.4902" },
  { "name": "Erie", "state_code": "PA", "lat": "42.1292", "lng": "-80.0851" },
  { "name": "Reading", "state_code": "PA", "lat": "40.3331", "lng": "-75.9255" },
  { "name": "Las Vegas", "state_code": "NV", "lat": "36.1699", "lng": "-115.1398" },
  { "name": "Henderson", "state_code": "NV", "lat": "36.0396", "lng": "-114.9815" },
  { "name": "Reno", "state_code": "NV", "lat": "39.5296", "lng": "-119.8138" },
  { "name": "North Las Vegas", "state_code": "NV", "lat": "36.2218", "lng": "-115.1375" },
  { "name": "Sparks", "state_code": "NV", "lat": "39.5544", "lng": "-119.7517" },
  { "name": "Baltimore", "state_code": "MD", "lat": "39.2904", "lng": "-76.6122" },
  { "name": "Columbia", "state_code": "MD", "lat": "39.2020", "lng": "-76.8689" },
  { "name": "Germantown", "state_code": "MD", "lat": "39.1731", "lng": "-77.2650" },
  { "name": "Silver Spring", "state_code": "MD", "lat": "38.9907", "lng": "-77.0264" },
  { "name": "Rockville", "state_code": "MD", "lat": "39.0842", "lng": "-77.1528" },
  { "name": "Charlotte", "state_code": "NC", "lat": "35.2271", "lng": "-80.8431" },
  { "name": "Raleigh", "state_code": "NC", "lat": "35.7796", "lng": "-78.6382" },
  { "name": "Greensboro", "state_code": "NC", "lat": "36.0726", "lng": "-79.7920" },
  { "name": "Durham", "state_code": "NC", "lat": "35.9940", "lng": "-78.8986" },
  { "name": "Winston-Salem", "state_code": "NC", "lat": "36.0998", "lng": "-80.2442" },
  { "name": "Detroit", "state_code": "MI", "lat": "42.3314", "lng": "-83.0458" },
  { "name": "Grand Rapids", "state_code": "MI", "lat": "42.9634", "lng": "-85.6681" },
  { "name": "Warren", "state_code": "MI", "lat": "42.4929", "lng": "-83.0200" },
  { "name": "Sterling Heights", "state_code": "MI", "lat": "42.5803", "lng": "-83.0302" },
  { "name": "Ann Arbor", "state_code": "MI", "lat": "42.2808", "lng": "-83.7430" },
  { "name": "Nashville", "state_code": "TN", "lat": "36.1627", "lng": "-86.7816" },
  { "name": "Memphis", "state_code": "TN", "lat": "35.1495", "lng": "-90.0490" },
  { "name": "Knoxville", "state_code": "TN", "lat": "35.9606", "lng": "-83.9207" },
  { "name": "Chattanooga", "state_code": "TN", "lat": "35.0456", "lng": "-85.3097" },
  { "name": "Clarksville", "state_code": "TN", "lat": "36.5298", "lng": "-87.3464" },
  { "name": "Milwaukee", "state_code": "WI", "lat": "43.0389", "lng": "-87.9065" },
  { "name": "Madison", "state_code": "WI", "lat": "43.0731", "lng": "-89.4012" },
  { "name": "Green Bay", "state_code": "WI", "lat": "44.5133", "lng": "-88.0133" },
  { "name": "Kenosha", "state_code": "WI", "lat": "42.5845", "lng": "-87.8213" },
  { "name": "Racine", "state_code": "WI", "lat": "42.7261", "lng": "-87.8231" },
  { "name": "Honolulu", "state_code": "HI", "lat": "21.3069", "lng": "-157.8583" },
  { "name": "Kailua", "state_code": "HI", "lat": "21.4022", "lng": "-157.7394" },
  { "name": "Hilo", "state_code": "HI", "lat": "19.7054", "lng": "-155.0900" },
  { "name": "Kaneohe", "state_code": "HI", "lat": "21.4188", "lng": "-157.8033" },
  { "name": "Pearl City", "state_code": "HI", "lat": "21.3949", "lng": "-157.9633" },
  { "name": "Manchester", "state_code": "NH", "lat": "42.9956", "lng": "-71.4548" },
  { "name": "Nashua", "state_code": "NH", "lat": "42.7654", "lng": "-71.4676" },
  { "name": "Concord", "state_code": "NH", "lat": "43.2081", "lng": "-71.5376" }
]
